{
  "version": "1.1",
  "lastUpdate": "2025-11-01",
  "stops": [
    {
      "id": "5998",
      "name": "Pº Castellana - General Perón",
      "address": "Paseo de la Castellana, 143",
      "latitude": 40.4506,
      "longitude": -3.6889,
      "lines": ["27", "40", "147", "150"]
    },
    {
      "id": "72",
      "name": "Puerta del Sol",
      "address": "Puerta del Sol",
      "latitude": 40.4169,
      "longitude": -3.7035,
      "lines": ["3", "50", "51", "52", "53"]
    },
    {
      "id": "458",
      "name": "Plaza de España",
      "address": "Plaza de España",
      "latitude": 40.4238,
      "longitude": -3.7122,
      "lines": ["1", "2", "44", "46", "74", "133"]
    },
    {
      "id": "628",
      "name": "Atocha Renfe",
      "address": "Glorieta de Atocha",
      "latitude": 40.4068,
      "longitude": -3.6919,
      "lines": ["10", "14", "24", "26", "32", "37"]
    },
    {
      "id": "1221",
      "name": "Plaza de Cibeles",
      "address": "Plaza de Cibeles",
      "latitude": 40.4189,
      "longitude": -3.6936,
      "lines": ["1", "2", "5", "9", "10", "14", "15"]
    },
    {
      "id": "2819",
      "name": "Gran Vía - Red de San Luis",
      "address": "Gran Vía, 54",
      "latitude": 40.4216,
      "longitude": -3.7021,
      "lines": ["1", "2", "46", "74", "146"]
    },
    {
      "id": "3523",
      "name": "Moncloa",
      "address": "Intercambiador de Moncloa",
      "latitude": 40.4336,
      "longitude": -3.7177,
      "lines": ["16", "61", "82", "83", "132", "133"]
    },
    {
      "id": "4210",
      "name": "Retiro",
      "address": "Parque del Retiro",
      "latitude": 40.4153,
      "longitude": -3.6844,
      "lines": ["2", "15", "20", "28", "52", "63"]
    },
    {
      "id": "1589",
      "name": "Santiago Bernabéu",
      "address": "Paseo de la Castellana, 140",
      "latitude": 40.4530,
      "longitude": -3.6884,
      "lines": ["14", "27", "40", "43", "120", "126"]
    },
    {
      "id": "2134",
      "name": "Plaza Mayor",
      "address": "Plaza Mayor",
      "latitude": 40.4155,
      "longitude": -3.7074,
      "lines": ["3", "17", "18", "23", "31", "35", "50"]
    },
    {
      "id": "3782",
      "name": "Príncipe Pío",
      "address": "Estación de Príncipe Pío",
      "latitude": 40.4198,
      "longitude": -3.7183,
      "lines": ["25", "33", "39", "41", "46", "75"]
    },
    {
      "id": "892",
      "name": "Aeropuerto T4",
      "address": "Terminal T4",
      "latitude": 40.4936,
      "longitude": -3.5673,
      "lines": ["200", "101"]
    },
    {
      "id": "1473",
      "name": "Plaza de Castilla",
      "address": "Plaza de Castilla",
      "latitude": 40.4657,
      "longitude": -3.6887,
      "lines": ["5", "27", "42", "66", "67", "124", "129"]
    },
    {
      "id": "2956",
      "name": "Callao",
      "address": "Plaza del Callao",
      "latitude": 40.4202,
      "longitude": -3.7054,
      "lines": ["1", "2", "3", "46", "74", "75", "146"]
    },
    {
      "id": "5124",
      "name": "Ciudad Universitaria",
      "address": "Avenida Complutense",
      "latitude": 40.4468,
      "longitude": -3.7289,
      "lines": ["46", "82", "83", "132", "133"]
    },
    {
      "id": "731",
      "name": "Tribunal",
      "address": "Calle de Fuencarral",
      "latitude": 40.4263,
      "longitude": -3.7014,
      "lines": ["3", "37", "40", "149"]
    },
    {
      "id": "4582",
      "name": "Nuevos Ministerios",
      "address": "Paseo de la Castellana, 67",
      "latitude": 40.4464,
      "longitude": -3.6926,
      "lines": ["5", "7", "14", "27", "40", "147", "150"]
    },
    {
      "id": "2847",
      "name": "Goya",
      "address": "Calle de Goya",
      "latitude": 40.4263,
      "longitude": -3.6773,
      "lines": ["15", "21", "29", "52", "53", "146"]
    },
    {
      "id": "1892",
      "name": "Méndez Álvaro",
      "address": "Estación Sur de Autobuses",
      "latitude": 40.3987,
      "longitude": -3.6857,
      "lines": ["8", "10", "18", "19", "24", "54", "57"]
    },
    {
      "id": "3341",
      "name": "Ventas",
      "address": "Plaza de Toros de Las Ventas",
      "latitude": 40.4316,
      "longitude": -3.6656,
      "lines": ["12", "21", "38", "53", "106", "110", "146"]
    },
    {
      "id": "1256",
      "name": "Recoletos",
      "address": "Paseo de Recoletos",
      "latitude": 40.4215,
      "longitude": -3.6918,
      "lines": ["1", "5", "9", "14", "27", "45", "53", "150"]
    },
    {
      "id": "2478",
      "name": "Opera",
      "address": "Plaza de Isabel II",
      "latitude": 40.4180,
      "longitude": -3.7119,
      "lines": ["3", "25", "39", "148"]
    },
    {
      "id": "3918",
      "name": "Alonso Martínez",
      "address": "Calle de Santa Engracia",
      "latitude": 40.4264,
      "longitude": -3.6981,
      "lines": ["3", "7", "21", "37", "40", "149"]
    },
    {
      "id": "1674",
      "name": "Argüelles",
      "address": "Calle de la Princesa",
      "latitude": 40.4286,
      "longitude": -3.7154,
      "lines": ["1", "2", "44", "74", "133", "C1", "C2"]
    },
    {
      "id": "4895",
      "name": "Legazpi",
      "address": "Plaza de Legazpi",
      "latitude": 40.3867,
      "longitude": -3.6958,
      "lines": ["6", "8", "19", "45", "59", "78", "85"]
    },
    {
      "id": "2091",
      "name": "Chamartín",
      "address": "Estación de Chamartín",
      "latitude": 40.4736,
      "longitude": -3.6800,
      "lines": ["5", "66", "67", "124", "129", "135", "147"]
    },
    {
      "id": "3567",
      "name": "Pacífico",
      "address": "Avenida de la Albufera",
      "latitude": 40.4025,
      "longitude": -3.6700,
      "lines": ["8", "24", "54", "56", "57", "143"]
    },
    {
      "id": "892",
      "name": "Delicias",
      "address": "Paseo de las Delicias",
      "latitude": 40.3981,
      "longitude": -3.7012,
      "lines": ["8", "19", "45", "59", "78"]
    },
    {
      "id": "4123",
      "name": "Cuatro Caminos",
      "address": "Glorieta de Cuatro Caminos",
      "latitude": 40.4458,
      "longitude": -3.7058,
      "lines": ["3", "5", "44", "124", "126", "127", "149"]
    },
    {
      "id": "1945",
      "name": "Estrella",
      "address": "Calle de la Estrella",
      "latitude": 40.4185,
      "longitude": -3.6820,
      "lines": ["15", "20", "26", "28", "63"]
    },
    {
      "id": "5432",
      "name": "Conde de Casal",
      "address": "Calle de Alcalá",
      "latitude": 40.4088,
      "longitude": -3.6694,
      "lines": ["2", "15", "20", "28", "30", "56", "71"]
    },
    {
      "id": "2765",
      "name": "Embajadores",
      "address": "Glorieta de Embajadores",
      "latitude": 40.4074,
      "longitude": -3.7036,
      "lines": ["6", "26", "27", "34", "35", "41", "78"]
    },
    {
      "id": "3098",
      "name": "Lavapiés",
      "address": "Calle de Embajadores",
      "latitude": 40.4089,
      "longitude": -3.7011,
      "lines": ["6", "26", "27", "34", "35", "41"]
    },
    {
      "id": "4671",
      "name": "Bilbao",
      "address": "Glorieta de Bilbao",
      "latitude": 40.4297,
      "longitude": -3.7009,
      "lines": ["3", "7", "21", "37", "40", "147", "149"]
    },
    {
      "id": "1834",
      "name": "Pinar de Chamartín",
      "address": "Avenida de Burgos",
      "latitude": 40.4832,
      "longitude": -3.6687,
      "lines": ["67", "83", "124", "129", "153"]
    },
    {
      "id": "5201",
      "name": "Arturo Soria",
      "address": "Calle de Arturo Soria",
      "latitude": 40.4401,
      "longitude": -3.6470,
      "lines": ["11", "70", "104", "105", "112", "114"]
    },
    {
      "id": "2943",
      "name": "Avenida de América",
      "address": "Avenida de América",
      "latitude": 40.4407,
      "longitude": -3.6743,
      "lines": ["7", "29", "48", "52", "73", "120"]
    },
    {
      "id": "3756",
      "name": "Pirámides",
      "address": "Paseo de las Acacias",
      "latitude": 40.3933,
      "longitude": -3.7183,
      "lines": ["6", "18", "59", "60", "62", "78"]
    },
    {
      "id": "4389",
      "name": "Marqués de Vadillo",
      "address": "Calle de Segovia",
      "latitude": 40.3890,
      "longitude": -3.7294,
      "lines": ["6", "18", "35", "60", "62", "116"]
    },
    {
      "id": "1502",
      "name": "Ópera - Santo Domingo",
      "address": "Calle de Preciados",
      "latitude": 40.4193,
      "longitude": -3.7076,
      "lines": ["1", "2", "46", "74", "75", "146"]
    }
  ],
  "info": {
    "description": "Base de données des arrêts EMT Madrid populaires avec coordonnées GPS",
    "source": "Données approximatives pour démonstration",
    "note": "Pour une base complète, utiliser l'API officielle EMT Madrid",
    "totalStops": 40,
    "coverage": "Principaux arrêts et échangeurs de Madrid",
    "lastExpansion": "2025-11-01"
  }
}
